[{"name":"Kew Court House","venueURL":"http://www.beat.com.au/venue/kew-court-house/188-high-street-kew-vic-3101-see-map-google-maps","address":"188 High Street, Kew 3101","coords":{"lat":-37.80681060000001,"lng":145.0316391}},{"name":"Caulfield RSL","venueURL":"http://www.beat.com.au/venue/caulfield-rsl","address":"4 St Georges Rd, Elsternwick  3185","coords":{"lat":-37.883986,"lng":145.003099}},{"name":"Oakleigh Lounge","venueURL":"http://www.beat.com.au/venue/oakleigh-lounge","address":"95-97 Drummond St, Oakleigh 3166","coords":{"lat":-37.896922,"lng":145.0898128}},{"name":"Evelyn Hotel","venueURL":"http://www.beat.com.au/venue/evelyn-hotel/fitzroy-351-brunswick-st-3065","address":"351 Brunswick St, Fitzroy 3065","coords":{"lat":-37.7965587,"lng":144.9785525},"website":"http://www.evelynhotel.com.au"},{"name":"303","venueURL":"http://www.beat.com.au/venue/303/northcote-303-high-st-3070","address":"303 High St, Northcote 3070","coords":{"lat":-37.771341,"lng":144.9982761},"website":"http://www.303.net.au"},{"name":"Corner Hotel","venueURL":"http://www.beat.com.au/venue/corner-hotel/richmond-57-swan-st-3121","address":"57 Swan St, Richmond 3121","coords":{"lat":-37.82492999999999,"lng":144.9926689},"website":"http://www.cornerhotel.com"},{"name":"Globe Alley","venueURL":"http://www.beat.com.au/venue/belleville/globe-alley-melbourne-vic-3000-see-map-google-maps","address":"Globe Alley, Melbourne 3000","coords":{"lat":-37.8123999,"lng":144.965674},"website":"https://www.facebook.com/globealley/"},{"name":"Melbourne Recital Centre","venueURL":"http://www.beat.com.au/venue/melbourne-recital-centre/southbank-southbank-bvd-cnr-sturt-st-3006","address":"Southbank Bvd (Cnr Sturt St), Southbank 3006","coords":{"lat":-37.8233889,"lng":144.967386},"website":"http://www.melbournerecital.com.au"},{"name":"Penny Black","venueURL":"http://www.beat.com.au/venue/penny-black/brunswick-420-sydney-rd-3056","address":"420 Sydney Rd, Brunswick 3056","coords":{"lat":-37.768078,"lng":144.962174},"website":"http://www.thepennyblack.com.au"},{"name":"Chelsea Heights Hotel","venueURL":"http://www.beat.com.au/venue/chelsea-heights-hotel/chelsea-heights-cnr-springvale-rd-amp-wells-rd-3196","address":"Cnr Springvale Rd & Wells Rd, Chelsea Heights 3196","coords":{"lat":-38.0278623,"lng":145.1310588},"website":"http://www.chelseaheightshotel.com.au"},{"name":"Forum Theatre","venueURL":"http://www.beat.com.au/venue/forum-theatre/melbourne-cbd-154-flinders-st-3000","address":"154 Flinders St, Melbourne CBD 3000","coords":{"lat":-37.8166268,"lng":144.9695761},"website":"http://www.forummelbourne.com.au"},{"name":"Paris Cat Jazz Club","venueURL":"http://www.beat.com.au/venue/paris-cat-jazz-club/melbourne-cbd-6-goldie-pl-3000","address":"6 Goldie Pl, Melbourne CBD 3000","coords":{"lat":-37.8135237,"lng":144.9608349},"website":"http://www.pariscat.com.au"},{"name":"Bar Oussou","venueURL":"http://www.beat.com.au/venue/bar-oussou/brunswick-653-sydney-rd-3056","address":"653 Sydney Rd, Brunswick 3056","coords":{"lat":-37.76180799999999,"lng":144.962846},"website":"http://www.baroussou.com.au"},{"name":"Boney","venueURL":"http://www.beat.com.au/venue/boney/melbourne-cbd-68-lt-collins-st-3000","address":"68 Lt Collins St, Melbourne CBD 3000","coords":{"lat":-37.8128542,"lng":144.9713379},"website":"http://boney.net.au"},{"name":"Classic Southside","venueURL":"http://www.beat.com.au/venue/classic-cinema/9-gordon-street-elsternwick-vic-3185-see-map-google-maps","address":"9 Gordon Street, Elsternwick 3185","coords":{"lat":-37.8838431,"lng":145.0006863}},{"name":"Transit","venueURL":"http://www.beat.com.au/venue/transit/melbourne-cbd-flinders-st-3000","address":"Swanston St & Flinders St, Melbourne CBD 3000","coords":{"lat":-37.8175485,"lng":144.9674052},"website":"http://www.transporthotel.com.au"},{"name":"Al Metro","venueURL":"http://www.beat.com.au/venue/al-metro","address":"342 Brunswick St, Fitzroy 3065","coords":{"lat":-37.7970644,"lng":144.9789318}},{"name":"Wesley Anne","venueURL":"http://www.beat.com.au/venue/wesley-anne/250-high-st-northcote-vic-3070-australia-37-46-22458-s-144-59-5523-e-see-map-google-maps","address":"250 High St, Northcote 3070","coords":{"lat":-37.772908,"lng":144.998451},"website":"http://www.wesleyanne.com.au"},{"name":"Open Studio","venueURL":"http://www.beat.com.au/venue/open-studio/northcote-204-high-st-3070","address":"204 High St, Northcote 3070","coords":{"lat":-37.774247,"lng":144.998188},"website":"http://www.myspace.com/openstudio"},{"name":"Compass Pizza","venueURL":"http://www.beat.com.au/venue/compass-pizza/319-lygon-s-brunswick-east-vic-3057-see-map-google-maps","address":"319 Lygon S, Brunswick East 3057","coords":{"lat":-37.768617,"lng":144.972036}},{"name":"The Jazzlab","venueURL":"http://www.beat.com.au/venue/jazzlab","address":"27 Leslie Street, Brunswick 3056","coords":{"lat":-37.7670298,"lng":144.9585378}},{"name":"Lido Jazz Room","venueURL":"http://www.beat.com.au/venue/lido-jazz-room/675-glenferrie-road-hawthorn-vic-3122-see-map-google-maps","address":"675 Glenferrie Road, Hawthorn 3122","coords":{"lat":-37.8204684,"lng":145.0355892}},{"name":"Night Cat","venueURL":"http://www.beat.com.au/venue/night-cat/fitzroy-141-johnston-st-3065","address":"141 Johnston St, Fitzroy 3065","coords":{"lat":-37.7982767,"lng":144.9794469},"website":"http://www.thenightcat.com.au"},{"name":"Jasper's Jazz Bar","venueURL":"http://www.beat.com.au/venue/jaspers-jazz-bar","address":"14 Goldie Pl, Melbourne 3000","coords":{"lat":-37.8133291,"lng":144.9607493}},{"name":"Butterfly Club","venueURL":"http://www.beat.com.au/venue/butterfly-club/melbourne-cbd-carson-pl-3000","address":"Carson Pl, Melbourne CBD 3000","coords":{"lat":-37.8150609,"lng":144.9651096},"website":"http://www.thebutterflyclub.com"},{"name":"Co.","venueURL":"http://www.beat.com.au/venue/co/southbank-lvl-3-8-whiteman-st-3006","address":"Lvl 3 / 8 Whiteman St, Southbank 3006","coords":{"lat":-37.82343669999999,"lng":144.9580861},"website":"http://www.coatcrown.com.au"},{"name":"Laundry Bar","venueURL":"http://www.beat.com.au/venue/laundry-bar/fitzroy-48-50-johnston-st-3065","address":"48-50 Johnston St, Fitzroy 3065","coords":{"lat":-37.7982692,"lng":144.976348},"website":"http://www.laundrybar.com.au"},{"name":"Khokolat Bar","venueURL":"http://www.beat.com.au/venue/khokolat-bar/melbourne-cbd-43-hardware-la-3000","address":"43 Hardware La, Melbourne CBD 3000","coords":{"lat":-37.81356299999999,"lng":144.9611247},"website":"http://www.khokolatbar.com.au"},{"name":"Grace Darling Hotel","venueURL":"http://www.beat.com.au/venue/grace-darling-hotel/collingwood-114-smith-st-3066","address":"114 Smith St, Collingwood 3066","coords":{"lat":-37.8048345,"lng":144.9834494},"website":"http://www.gracedarlinghotel.com.au"},{"name":"Royal Melbourne Hotel","venueURL":"http://www.beat.com.au/venue/royal-melbourne-hotel/melbourne-cbd-629-bourke-st-3000","address":"629 Bourke St, Melbourne CBD 3000","coords":{"lat":-37.8168528,"lng":144.9552468},"website":"http://www.rmh.com.au"},{"name":"Stay Gold","venueURL":"http://www.beat.com.au/venue/stay-gold","address":"133 Sydney Road, Brunswick 3056","coords":{"lat":-37.77441049999999,"lng":144.9606816},"website":"https://www.facebook.com/pg/staygoldmelbourne/"},{"name":"Carlton Club","venueURL":"http://www.beat.com.au/venue/carlton-club/melbourne-cbd-193-bourke-st-3000","address":"193 Bourke St, Melbourne CBD 3000","coords":{"lat":-37.8132319,"lng":144.9676558},"website":"http://www.thecarlton.com.au"},{"name":"Elephant & Wheelbarrow","venueURL":"http://www.beat.com.au/venue/elephant-wheelbarrow","address":"94-96 Bourke St, Melbourne 3000","coords":{"lat":-37.8119435,"lng":144.970267}},{"name":"Toff In Town","venueURL":"http://www.beat.com.au/venue/toff-town/melbourne-cbd-252-swanston-st-3000","address":"252 Swanston St, Melbourne CBD 3000","coords":{"lat":-37.8119942,"lng":144.9652513},"website":"http://www.thetoffintown.com"},{"name":"Pawn & Co","venueURL":"http://www.beat.com.au/venue/pawn-co/south-yarra-8-402-chapel-st-3141","address":"8 / 402 Chapel St, South Yarra 3141","coords":{"lat":-37.8451001,"lng":144.9947039},"website":"http://www.pawnandco.com.au"},{"name":" Red Betty","venueURL":"http://www.beat.com.au/venue/red-betty","address":"859a Sydney Road, Brunswick 3056","coords":{"lat":-37.756049,"lng":144.963833},"website":"http://www.redbetty.com.au/"},{"name":"Ferdydurke","venueURL":"http://www.beat.com.au/venue/ferdydurke/melbourne-cbd-239-lonsdale-st-3000","address":"239 Lonsdale St, Melbourne CBD 3000","coords":{"lat":-37.811598,"lng":144.965386}},{"name":"Section 8","venueURL":"http://www.beat.com.au/venue/section-8/melbourne-cbd-27-29-tattersalls-la-3000","address":"27-29 Tattersalls La, Melbourne CBD 3000","coords":{"lat":-37.8117695,"lng":144.9654041},"website":"http://www.section8.com.au"},{"name":"New Guernica","venueURL":"http://www.beat.com.au/venue/new-guernica/melbourne-cbd-322-little-collins-st-3000","address":"322 Little Collins St, Melbourne CBD 3000","coords":{"lat":-37.8149845,"lng":144.9640496},"website":"http://www.newguernica.com.au"},{"name":"Prince Bandroom","venueURL":"http://www.beat.com.au/venue/prince-bandroom/st-kilda-29-fitzroy-st-3182","address":"29 Fitzroy St, St Kilda 3182","coords":{"lat":-37.86200700000001,"lng":144.974127},"website":"http://www.princebandroom.com.au"},{"name":"La Di Da","venueURL":"http://www.beat.com.au/venue/la-di-da/melbourne-cbd-577-lt-bourke-st-3000","address":"577 Lt Bourke St, Melbourne CBD 3000","coords":{"lat":-37.8155612,"lng":144.955634},"website":"http://www.ladidapeople.com"},{"name":"Yours & Mine","venueURL":"http://www.beat.com.au/venue/yours-mine","address":" 229 Queensberry Street, Carlton 3053","coords":{"lat":-37.80454,"lng":144.961127},"website":"https://www.facebook.com/yoursandmineclub/"},{"name":"Fox Hotel (Collingwood)","venueURL":"http://www.beat.com.au/venue/fox-hotel/collingwood-351-wellington-st-3066","address":"351 Wellington St, Collingwood 3066","coords":{"lat":-37.794511,"lng":144.987943},"website":"http://www.thefoxhotel.com.au"},{"name":"24 Moons","venueURL":"http://www.beat.com.au/venue/24-moons/2-arthurton-road-northcote-vic-see-map-google-maps","address":"2 Arthurton Road, Northcote ","coords":{"lat":-37.769148,"lng":144.9982808}},{"name":"Whitehart","venueURL":"http://www.beat.com.au/venue/whitehart","address":"22 Whitehart Lane, Melbourne 3000","coords":{"lat":-37.812872,"lng":144.961933}},{"name":"Room 680","venueURL":"http://www.beat.com.au/venue/room-680/hawthorn-680-glenferrie-rd-3122","address":"680 Glenferrie Rd, Hawthorn 3122","coords":{"lat":-37.8208784,"lng":145.0360271},"website":"http://www.room680.com"},{"name":"Grumpy's Green","venueURL":"http://www.beat.com.au/venue/grumpys-green/fitzroy-125-smith-st-3065","address":"125 Smith St, Fitzroy 3065","coords":{"lat":-37.805232,"lng":144.982984},"website":"http://www.grumpysgreen.com"},{"name":"Rubix Warehouse","venueURL":"http://www.beat.com.au/venue/rubix-warehouse/brunswick-36-phoenix-st-3056","address":"36 Phoenix St, Brunswick 3056","coords":{"lat":-37.769771,"lng":144.957453},"website":"http://www.rubixvenue.com"},{"name":"Some Velvet Morning","venueURL":"http://www.beat.com.au/venue/some-velvet-morning/clifton-hill-123-queens-pde-3068","address":"123 Queens Pde, Clifton Hill 3068","coords":{"lat":-37.7893225,"lng":144.9901509},"website":"http://www.somevelvetmorning.com.au"},{"name":"Tramway Hotel","venueURL":"http://www.beat.com.au/venue/tramway-hotel/165-rae-st-north-fitzroy-vic-3068-see-map-google-maps","address":"165 Rae St, North Fitzroy 3068","coords":{"lat":-37.78852699999999,"lng":144.978975},"website":"http://www.tramwayhotel.com.au"},{"name":"Cherry Bar","venueURL":"http://www.beat.com.au/venue/cherry-bar/melbourne-cbd-acdc-ln-melbourne-3000","address":"AC/DC Ln Melbourne, Melbourne CBD 3000","coords":{"lat":-37.8157955,"lng":144.9709956},"website":"http://www.myspace.com/cherrybarmelbourne"},{"name":"Swamplands Bar","venueURL":"http://www.beat.com.au/venue/tago-mago/thornbury-744-high-st-3071","address":"744 High St, Thornbury 3071","coords":{"lat":-37.755932,"lng":145.001247},"website":"https://www.facebook.com/Swamplands-Bar-2023159767933248/"},{"name":"Bombay Rock","venueURL":"http://www.beat.com.au/venue/bombay-rock","address":"303 Sydney Road, Brunswick 3056","coords":{"lat":-37.7704587,"lng":144.9610545},"website":"http://bombayrock.com.au/"},{"name":"Tote Hotel","venueURL":"http://www.beat.com.au/venue/tote-hotel/collingwood-71-johnston-st-3066","address":"71 Johnston St, Collingwood 3066","coords":{"lat":-37.7994133,"lng":144.9870723},"website":"http://www.thetotehotel.com"},{"name":"The B.East","venueURL":"http://www.beat.com.au/venue/beast/brunswick-east-80-lygon-st-3057","address":"80 Lygon St, Brunswick East 3057","coords":{"lat":-37.7762971,"lng":144.9713157},"website":"http://www.theb-east.com"},{"name":"Bendigo Hotel","venueURL":"http://www.beat.com.au/venue/bendigo-hotel/collingwood-125-johnston-st-3066","address":"125 Johnston St, Collingwood 3066","coords":{"lat":-37.7996209,"lng":144.9891044},"website":"http://www.bendigohotel.com.au"},{"name":"Caravan Music Club","venueURL":"http://www.beat.com.au/venue/caravan-music-club/oakleigh-oakleigh-carnegie-rsl-95-97-drummond-st-3166","address":"1 Victor Rd, Bentleigh East 3165","coords":{"lat":-37.9317845,"lng":145.0778413},"website":"http://www.caravanmusic.com.au"},{"name":"John Curtin Hotel","venueURL":"http://www.beat.com.au/venue/john-curtin-hotel/carlton-29-lygon-st-3053","address":"29 Lygon St, Carlton 3053","coords":{"lat":-37.8062037,"lng":144.9657147},"website":"http://www.johncurtinhotel.com"},{"name":"Yah Yah's","venueURL":"http://www.beat.com.au/venue/yah-yahs/fitzroy-99-smith-st-3066","address":"99 Smith St, Fitzroy 3066","coords":{"lat":-37.80587939999999,"lng":144.9828984},"website":"http://www.yahyahs.com.au"},{"name":"Torquay Hotel","venueURL":"http://www.beat.com.au/venue/torquay-hotel/torquay-36-bell-st-3228","address":"36 Bell St, Torquay 3228","coords":{"lat":-38.3369182,"lng":144.3191993},"website":"http://www.torquayhotel.com.au"},{"name":"Workers Club","venueURL":"http://www.beat.com.au/venue/workers-club/fitzroy-51-brunswick-st-3065","address":"51 Brunswick St, Fitzroy 3065","coords":{"lat":-37.805598,"lng":144.977022},"website":"http://www.theworkersclub.com.au"},{"name":"Whole Lotta Love","venueURL":"http://www.beat.com.au/venue/whole-lotta-love/brunswick-east-524-lygon-st-3104","address":"524 Lygon St, Brunswick East 3104","coords":{"lat":-37.762318,"lng":144.973588},"website":"http://www.wholelottalovebar.com"},{"name":"Post Office Hotel","venueURL":"http://www.beat.com.au/venue/post-office-hotel/coburg-229-231-sydney-rd-3058","address":"229-231 Sydney Rd, Coburg 3058","coords":{"lat":-37.7488376,"lng":144.9649265},"website":"http://www.thepostofficehotel.com.au"},{"name":"Kingston City Hall","venueURL":"http://www.beat.com.au/venue/kingston-city-hall/moorabbin-985-nepean-hwy-3189","address":"985 Nepean Hwy, Moorabbin 3189","coords":{"lat":-37.93378,"lng":145.035977},"website":"http://www.kingstonarts.com.au"},{"name":"Royal Hotel (Mornington)","venueURL":"http://www.beat.com.au/venue/royal-hotel/mornington-770-esplanade-3931","address":"770 Esplanade, Mornington 3931","coords":{"lat":-38.2185229,"lng":145.0333805},"website":"http://www.theroyal.com.au"},{"name":"Bird's Basement","venueURL":"http://www.beat.com.au/venue/birds-basement/11-singers-ln-melbourne-vic-3000-see-map-google-maps","address":"11 Singers Lane, Melbourne 3000","coords":{"lat":-37.8112739,"lng":144.9564729},"website":"https://birdsbasement.com/"},{"name":"The Fyrefly","venueURL":"http://www.beat.com.au/venue/fyrefly","address":"34 Inkerman Street, St Kilda 3182","coords":{"lat":-37.8639678,"lng":144.9830628}},{"name":"Espy","venueURL":"http://www.beat.com.au/venue/espy/st-kilda-11-esplanade-3182","address":"11 The Esplanade, St Kilda 3182","coords":{"lat":-37.8642535,"lng":144.972863},"website":"http://www.espy.com.au"},{"name":"Loop","venueURL":"http://www.beat.com.au/venue/loop/melbourne-cbd-23-meyers-pl-3000","address":"23 Meyers Pl, Melbourne CBD 3000","coords":{"lat":-37.812138,"lng":144.972113},"website":"http://www.looponline.com.au"},{"name":"Last Chance Rock And Roll Bar","venueURL":"http://www.beat.com.au/venue/last-chance-rock-roll-bar/238-victoria-st-north-melbourne-vic-3051-see-map-google-maps-0","address":"238 Victoria St, North Melbourne 3051","coords":{"lat":-37.8058877,"lng":144.9587959}},{"name":"The New Yorker (Lilydale)","venueURL":"http://www.beat.com.au/venue/hysteria-lounge/243-main-street-lilydale-vic-3140-see-map-google-maps","address":"243 Main Street, Lilydale 3140","coords":{"lat":-37.7573,"lng":145.351597}},{"name":"Musicland","venueURL":"http://www.beat.com.au/venue/musicland/fawkner-1359a-sydney-rd-3060","address":"1359a Sydney Rd, Fawkner 3060","coords":{"lat":-37.6958939,"lng":144.9586884},"website":"http://www.musiclandonline.com.au"},{"name":"Rainbow Hotel","venueURL":"http://www.beat.com.au/venue/rainbow-hotel/fitzroy-27-st-david-st-3065","address":"27 St David St, Fitzroy 3065","coords":{"lat":-37.8006168,"lng":144.9793506},"website":"http://www.therainbow.com.au"},{"name":"The Brothers Public House","venueURL":"http://www.beat.com.au/venue/brothers-public-house","address":"42 Johnston Street, Fitzroy 3065","coords":{"lat":-37.7982664,"lng":144.9761891},"website":"https://thebrotherspublichouse.com/"},{"name":"Glenmaggie Mechanics Institute - Glenmaggie Hall","venueURL":"http://www.beat.com.au/venue/glenmaggie-mechanics-institute-glenmaggie-hall/glenmaggie-vic-3858-see-map-google-maps","address":", Glenmaggie 3858","coords":{"lat":-37.9163753,"lng":146.7461215}},{"name":"Mac's Hotel","venueURL":"http://www.beat.com.au/venue/macs-hotel/melton-322-332-high-st-3337","address":"322-332 High St, Melton 3337","coords":{"lat":-37.682935,"lng":144.5823396},"website":"http://www.macshotel.com.au"},{"name":"Community Church of St Mark","venueURL":"http://www.beat.com.au/venue/community-church-st-mark","address":"100 Hodgkinson Street, Clifton Hill 3068","coords":{"lat":-37.789314,"lng":144.991291}},{"name":"Bar Open","venueURL":"http://www.beat.com.au/venue/bar-open/fitzroy-317-brunswick-st-3065","address":"317 Brunswick St, Fitzroy 3065","coords":{"lat":-37.7976558,"lng":144.9784154},"website":"http://www.baropen.com.au"},{"name":"Drunken Poet","venueURL":"http://www.beat.com.au/venue/drunken-poet/west-melbourne-65-peel-st-3004","address":"65 Peel St, West Melbourne 3004","coords":{"lat":-37.8066776,"lng":144.955503},"website":"http://www.myspace.com/drunkenpoets"},{"name":"Lomond Hotel","venueURL":"http://www.beat.com.au/venue/lomond-hotel/brunswick-east-225-nicholson-st-3057","address":"225 Nicholson St, Brunswick East 3057","coords":{"lat":-37.7671803,"lng":144.9800464},"website":"http://www.lomondhotel.com.au"},{"name":"Northcote Social Club","venueURL":"http://www.beat.com.au/venue/northcote-social-club/northcote-301-high-st-3070","address":"301 High St, Northcote 3070","coords":{"lat":-37.771438,"lng":144.998389},"website":"http://www.northcotesocialclub.com"},{"name":"Old Bar","venueURL":"http://www.beat.com.au/venue/old-bar/fitzroy-74-76-johnston-st-3065","address":"74-76 Johnston St, Fitzroy 3065","coords":{"lat":-37.798362,"lng":144.977083},"website":"http://www.theoldbar.com.au"},{"name":"Catfish","venueURL":"http://www.beat.com.au/venue/catfish/fitzroy-30-gertrude-st-3065","address":"30 Gertrude St, Fitzroy 3065","coords":{"lat":-37.8056865,"lng":144.9751865},"website":"https://www.facebook.com/thecatfishfitzroy"},{"name":"Gem Bar","venueURL":"http://www.beat.com.au/venue/gem-bar/collingwood-289-wellington-st-3066","address":"289 Wellington St, Collingwood 3066","coords":{"lat":-37.7963849,"lng":144.9875814},"website":"http://thegembar.com.au"},{"name":"Clifton Hill Brew Pub","venueURL":"http://www.beat.com.au/venue/clifton-hill-brew-pub/clifton-hill-80-queens-pade-3068","address":"80 Queens Pade, Clifton Hill 3068","coords":{"lat":-37.7898678,"lng":144.9881594},"website":"https://www.facebook.com/thecliftonhillbrewpub"},{"name":"Charles Weston Hotel","venueURL":"http://www.beat.com.au/venue/charles-weston-hotel/27-weston-st-brunswick-vic-3056-australia-37-46-298272-s-144-57-478548-e-see-map-google-maps","address":"27 Weston St, Brunswick 3056","coords":{"lat":-37.774874,"lng":144.963271}},{"name":"Edinburgh Castle","venueURL":"http://www.beat.com.au/venue/edinburgh-castle/681-sydney-rd-brunswick-vic-3056-australia-37-45-395604-s-144-57-470952-e-see-map-google-maps","address":"681 Sydney Rd, Brunswick 3056","coords":{"lat":-37.761027,"lng":144.963015},"website":"http://www.edinburghcastle.net.au"},{"name":"Spotted Mallard","venueURL":"http://www.beat.com.au/venue/spotted-mallard/brunswick-314-sydney-rd-3056","address":"314 Sydney Rd, Brunswick 3056","coords":{"lat":-37.7704266,"lng":144.9617575},"website":"http://www.spottedmallard.com"},{"name":"Grand Hyatt Melbourne","venueURL":"http://www.beat.com.au/venue/grand-hyatt-melbourne","address":"123 Collins St, Melbourne 3000","coords":{"lat":-37.8152145,"lng":144.9700836},"website":"https://www.hyatt.com/"},{"name":"Barton Fink","venueURL":"http://www.beat.com.au/venue/barton-fink","address":"816/818 High St, Thornbury 3071","coords":{"lat":-37.7533682,"lng":145.0019734}},{"name":"Pause Bar","venueURL":"http://www.beat.com.au/venue/pause-bar/balaclava-268-carlisle-st-3183","address":"268 Carlisle St, Balaclava 3183","coords":{"lat":-37.8684822,"lng":144.9929501},"website":"http://www.pausebar.com.au"},{"name":"Brunswick Green","venueURL":"http://www.beat.com.au/venue/brunswick-green/brunswick-313-sydney-rd-3056","address":"313 Sydney Rd, Brunswick 3056","coords":{"lat":-37.770138,"lng":144.9614257}},{"name":"Brunswick Neighbourhood House","venueURL":"http://www.beat.com.au/venue/brunswick-neighbourhood-house","address":"43A De Carle St, Brunswick 3056","coords":{"lat":-37.7602757,"lng":144.9647954}},{"name":"Howler","venueURL":"http://www.beat.com.au/venue/howler/brunswick-7-11-dawson-st-3056","address":"7-11 Dawson St, Brunswick 3056","coords":{"lat":-37.771511,"lng":144.959539},"website":"http://www.h-w-l-r.com.au"},{"name":"Max Watt's","venueURL":"http://www.beat.com.au/venue/max-watts/125-swanston-st-melbourne-vic-3000-see-map-google-maps","address":"125 Swanston St, Melbourne 3000","coords":{"lat":-37.8147141,"lng":144.9658574}},{"name":"MEMO Music Hall","venueURL":"http://www.beat.com.au/venue/st-kilda-memo/st-kilda-90-acland-street-3182","address":" 90  Acland Street, St Kilda 3182","coords":{"lat":-37.8675145,"lng":144.9790156},"website":"http://www.memomusichall.com.au"},{"name":"Yarra Hotel","venueURL":"http://www.beat.com.au/venue/yarra-hotel/abbotsford-295-johnston-st-3067","address":"295 Johnston St , Abbotsford 3067","coords":{"lat":-37.8003333,"lng":144.9962838},"website":"http://www.theyarrahotel.com.au/"},{"name":"Retreat Hotel","venueURL":"http://www.beat.com.au/venue/retreat-hotel/brunswick-280-sydney-rd-3056","address":"280 Sydney Rd, Brunswick 3056","coords":{"lat":-37.771168,"lng":144.961613},"website":"http://retreathotelbrunswick.com.au/"},{"name":"170 Russell","venueURL":"http://www.beat.com.au/venue/170-russell/melbourne-cbd-170-russell-st-3000","address":"170 Russell St, Melbourne CBD 3000","coords":{"lat":-37.8120434,"lng":144.9680382},"website":"http://www.170russell.com"},{"name":"The Craft & Co Farm","venueURL":"http://www.beat.com.au/venue/craft-co-farm","address":" 170 Riverend Rd, Bangholme 3175","coords":{"lat":-38.0409687,"lng":145.145514}},{"name":"Customs House Hotel","venueURL":"http://www.beat.com.au/venue/customs-house-hotel/williamstown-161-nelson-pl-3016","address":"161 Nelson Pl, Williamstown 3016","coords":{"lat":-37.863157,"lng":144.903962},"website":"http://www.customshousehotel.com.au"},{"name":"Sooki Lounge","venueURL":"http://www.beat.com.au/venue/sooki-lounge/belgrave-1648-burwood-hwy-3160","address":"1648 Burwood Hwy, Belgrave 3160","coords":{"lat":-37.910038,"lng":145.353427},"website":"http://sookilounge.com.au/"},{"name":"The Publican Mornington","venueURL":"http://www.beat.com.au/venue/publican-mornington","address":"62 Main Street, Mornington 3931","coords":{"lat":-38.218215,"lng":145.037833},"website":"http://publicanmornington.com.au/"},{"name":"Labour In Vain","venueURL":"http://www.beat.com.au/venue/labour-vain/fitzroy-197-brunswick-st-3065","address":"197 Brunswick St, Fitzroy 3065","coords":{"lat":-37.8013784,"lng":144.9778061},"website":"https://www.facebook.com/LabourInVain"},{"name":"Royal Hotel (Essendon)","venueURL":"http://www.beat.com.au/venue/royal-hotel/873-mt-alexander-rd-essendon-vic-see-map-google-maps","address":"873 Mt Alexander Rd, Essendon 3040","coords":{"lat":-37.7556118,"lng":144.9173562},"website":"http://www.royalhotelessendon.com.au"},{"name":"Lucky Coq","venueURL":"http://www.beat.com.au/venue/lucky-coq/windsor-179-chapel-st-3181","address":"179 Chapel St, Windsor 3181","coords":{"lat":-37.85196,"lng":144.993156},"website":"http://www.luckycoq.com.au"},{"name":"Radio Bar","venueURL":"http://www.beat.com.au/venue/radio-bar/79-gertrude-st-fitzroy-vic-3065-see-map-google-maps","address":"79 Gertrude St, Fitzroy 3065","coords":{"lat":-37.805528,"lng":144.976626}},{"name":"Hamer Hall (Arts Centre Melbourne)","venueURL":"http://www.beat.com.au/venue/hamer-hall-arts-centre-melbourne/southbank-26-28-southgate-ave-3006","address":"26-28 Southgate Ave, Southbank 3006","coords":{"lat":-37.8204479,"lng":144.9671207},"website":"http://www.artscentremelbourne.com.au"},{"name":"The Croxton","venueURL":"http://www.beat.com.au/venue/croxton/607-high-st-thornbury-vic-3071-see-map-google-maps","address":"607 High St, Thornbury 3071","coords":{"lat":-37.7625519,"lng":144.9993402},"website":"http://thecroxton.com.au/"},{"name":"Horse Bazaar","venueURL":"http://www.beat.com.au/venue/horse-bazaar/melbourne-cbd-397-little-lonsdale-st-3000","address":"397 Little Lonsdale St, Melbourne CBD 3000","coords":{"lat":-37.8118873,"lng":144.9602324},"website":"http://www.horsebazaar.com.au"},{"name":"Uptown Jazz Cafe","venueURL":"http://www.beat.com.au/venue/uptown-jazz-cafe/fitzroy-177-brunswick-st-3065","address":"177 Brunswick St, Fitzroy 3065","coords":{"lat":-37.802138,"lng":144.977582},"website":"http://www.uptownjazzcafe.com"},{"name":"Revolver Upstairs","venueURL":"http://www.beat.com.au/venue/revolver-upstairs/prahran-229-chapel-st-3181","address":"229 Chapel St, Prahran 3181","coords":{"lat":-37.8506034,"lng":144.993341},"website":"http://www.revolverupstairs.com.au"},{"name":"Rod Laver Arena","venueURL":"http://www.beat.com.au/venue/rod-laver-arena/melbourne-batman-ave-3000","address":"Batman Ave, Melbourne 3000","coords":{"lat":-37.8172049,"lng":144.9736298},"website":"http://www.rodlaverarena.com.au"},{"name":"The Water Rat Hotel","venueURL":"http://www.beat.com.au/venue/water-rat-hotel/256-moray-st-south-melbourne-vic-3205-see-map-google-maps","address":"256 Moray St, South Melbourne 3205","coords":{"lat":-37.8347687,"lng":144.9639086}},{"name":"Kent St Bar","venueURL":"http://www.beat.com.au/venue/kent-st-bar/fitzroy-201-smith-st-3065","address":"201 Smith St, Fitzroy 3065","coords":{"lat":-37.803166,"lng":144.983381},"website":"https://www.facebook.com/KentStreetBar"},{"name":"Little Jax","venueURL":"http://www.beat.com.au/venue/little-jax","address":"1/401 Swanston Street, Melbourne 3000","coords":{"lat":-37.809035,"lng":144.9632271},"website":"http://www.littlejax.com.au"},{"name":"OneSixOne","venueURL":"http://www.beat.com.au/venue/onesixone/prahran-161-high-st-3181","address":"161 High St, Prahran 3181","coords":{"lat":-37.85173229999999,"lng":144.9936589},"website":"http://www.onesixone.com.au"},{"name":"OnTop Bar","venueURL":"http://www.beat.com.au/venue/ontop-bar/ormond-483-north-road-3204","address":"483 North Road, Ormond 3204","coords":{"lat":-37.9035407,"lng":145.038931},"website":"http://www.ontopbar.net.au"},{"name":"FAD Gallery","venueURL":"http://www.beat.com.au/venue/fad-gallery/melbourne-cbd-14-corrs-lane-3000","address":"14 Corrs Lane, Melbourne CBD 3000","coords":{"lat":-37.811245,"lng":144.9684286},"website":"http://www.fadgallery.com.au"},{"name":"Hume Blues Club (Shake Shack)","venueURL":"http://www.beat.com.au/venue/hume-blues-club/1359-sydney-rd-fawkner-vic-3060-see-map-google-maps","address":"19 Harding Street, Coburg 3058","coords":{"lat":-37.7448607,"lng":144.9674149},"website":"http://www.humebluesclub.com"},{"name":"Pelly Bar","venueURL":"http://www.beat.com.au/venue/pelly-bar/1-3-daveys-street-frankston-vic-see-map-google-maps","address":"1-3 Daveys Street, Frankston ","coords":{"lat":-38.144681,"lng":145.11955}},{"name":"Brown Alley","venueURL":"http://www.beat.com.au/venue/brown-alley/melbourne-cbd-colonial-hotel-240-king-st-3000","address":"Colonial Hotel / 240 King St, Melbourne CBD 3000","coords":{"lat":-37.81452000000001,"lng":144.955082},"website":"http://www.brownalley.com"},{"name":"Rah Bar","venueURL":"http://www.beat.com.au/venue/rah-bar/163-toorak-rd-south-yarra-vic-3141-see-map-google-maps","address":"163 Toorak Rd, South Yarra 3141","coords":{"lat":-37.8388917,"lng":144.9918567}},{"name":"Wine Larder","venueURL":"http://www.beat.com.au/venue/wine-larder/153-martin-street-brighton-vic-see-map-google-maps","address":"1/53 Martin Street, Brighton ","coords":{"lat":-37.897174,"lng":145.003677}},{"name":"Smokehouse 101","venueURL":"http://www.beat.com.au/venue/smokehouse-101/101-rosamond-road-maidstone-vic-3012-see-map-google-maps","address":"101 Rosamond Road, Maidstone 3012","coords":{"lat":-37.780278,"lng":144.884404}},{"name":"Dog's Bar","venueURL":"http://www.beat.com.au/venue/dogs-bar/st-kilda-54-acland-st-3182","address":"54 Acland St, St Kilda 3182","coords":{"lat":-37.8662777,"lng":144.9779421},"website":"http://www.dogsbar.com.au"},{"name":"The Vineyard","venueURL":"http://www.beat.com.au/venue/vineyard/st-kilda-71a-acland-st-3182","address":"71A Acland St, St Kilda 3182","coords":{"lat":-37.8675253,"lng":144.9785015},"website":"http://www.thevineyard.com.au"},{"name":"Claypots","venueURL":"http://www.beat.com.au/venue/claypots/st-kilda-213-barkly-st-3182","address":"213 Barkly St, St Kilda 3182","coords":{"lat":-37.8699209,"lng":144.9804934},"website":"https://www.facebook.com/pages/Claypots/156493037704587"},{"name":"Iddy Biddy","venueURL":"http://www.beat.com.au/venue/iddy-biddy/st-kilda-35-39-blessington-st-3182","address":"35-39 Blessington St , St Kilda 3182","coords":{"lat":-37.870482,"lng":144.980927},"website":"http://www.iddybiddy.com.au"},{"name":"Lost","venueURL":"http://www.beat.com.au/venue/lost/211-barkley-street-st-kilda-vic-see-map-google-maps","address":"211 Barkley Street, St Kilda ","coords":{"lat":-37.869875,"lng":144.980389}},{"name":"Robarta","venueURL":"http://www.beat.com.au/venue/robarta/st-kilda-109-111-fitzroy-st-3182","address":"109-111 Fitzroy St, St Kilda 3182","coords":{"lat":-37.8601695,"lng":144.9772339},"website":"http://www.robarta.com.au"},{"name":"Veludo Bar & Restaurant","venueURL":"http://www.beat.com.au/venue/veludo-bar-restaurant/st-kilda-175-acland-st-3182","address":"175 Acland St, St Kilda 3182","coords":{"lat":-37.869384,"lng":144.980223},"website":"http://www.veludo.com.au"},{"name":"Good Love","venueURL":"http://www.beat.com.au/venue/good-love","address":"56 Acland St, St Kilda 3182","coords":{"lat":-37.8664297,"lng":144.9779977}},{"name":"Federation Square","venueURL":"http://www.beat.com.au/venue/federation-square/melbourne-cbd-cnr-swanston-st-amp-flinders-st-3000","address":"Cnr Swanston St & Flinders St, Melbourne CBD 3000","coords":{"lat":-37.8175485,"lng":144.9674052},"website":"http://www.federationsquare.com.au"},{"name":"Thornbury Theatre","venueURL":"http://www.beat.com.au/venue/thornbury-theatre/thornbury-859-high-st-3071","address":"859 High St, Thornbury 3071","coords":{"lat":-37.7547965,"lng":145.0010423},"website":"http://www.thethornburytheatre.com"},{"name":"Sidney Myer Music Bowl","venueURL":"http://www.beat.com.au/venue/sidney-myer-music-bowl/melbourne-21-linlithgow-ave-3000","address":"21 Linlithgow Ave, Melbourne 3000","coords":{"lat":-37.8223319,"lng":144.972301},"website":"http://www.artscentremelbourne.com.au"},{"name":"Empire","venueURL":"http://www.beat.com.au/venue/empire","address":"14-22 Lauderdale Rd, Narre Warren 3805","coords":{"lat":-38.0249518,"lng":145.3114115},"website":"https://www.empireclub.com.au/"},{"name":"Zo Damage","venueURL":"http://www.beat.com.au/venue/zo-damage","address":"147 Victoria St, Melbourne 3000","coords":{"lat":-37.8061281,"lng":144.9566532}},{"name":"Athenaeum Theatre","venueURL":"http://www.beat.com.au/venue/athenaeum-theatre/melbourne-cbd-188-collins-st-3000","address":"188 Collins St, Melbourne CBD 3000","coords":{"lat":-37.8150386,"lng":144.967359},"website":"http://www.melbourneathenaeum.org.au"},{"name":"Sorsi E Morsi","venueURL":"http://www.beat.com.au/venue/sorsi-e-morsi/29-31-blessington-st-st-kilda-vic-3182-see-map-google-maps","address":"29 - 31 Blessington St, St Kilda 3182","coords":{"lat":-37.87072,"lng":144.9803111}},{"name":"Freddie Wimpoles","venueURL":"http://www.beat.com.au/venue/freddie-wimpoles/125-fitzroy-st-st-kilda-vic-3182-see-map-google-maps","address":"125 Fitzroy St, St Kilda 3182","coords":{"lat":-37.859804,"lng":144.9778135}}]